COD_DISTRI,NOM_DISTRI,DIRECCION,DPA_PARROQ,DPA_DESPAR,DPA_CANTON,DPA_DESCAN,DPA_PROVIN,DPA_DESPRO,ZONA,NMT_25,COMPLEMENT,Capital_Pr,Latitud,Longitud
09D01,XIMENA 1,COOP PUEBLO UNIDO AV DOMINGO COMIN Y JUAN PENDOLA,90150,GUAYAQUIL,901,GUAYAQUIL,9,GUAYAS,8,DE,MINEDUC,SI,-2.26274518211,-79.8929821529
09D02,XIMENA 2,CALLES ARTURO SERRANO Y CARLOS GARCES ATRAS DE LA UNIDAD EDUCATIVA FISCAL FRANCISCO DE ORELLANA,90150,GUAYAQUIL,901,GUAYAQUIL,9,GUAYAS,8,DE,MINEDUC,SI,-2.22720241322,-79.9021140193
09D03,CENTRO,AGUIRRE Y ANDRES MARIN  A LADO DE LA UNIDAD EDUCATIVA FISCAL VICENTE ROCAFUERTE,90150,GUAYAQUIL,901,GUAYAQUIL,9,GUAYAS,8,DE,MINEDUC,SI,-2.18986257688,-79.8993419833
09D04,PORTETE,CALLE 40 ENTRE VENEZUELA Y PORTETE,90150,GUAYAQUIL,901,GUAYAQUIL,9,GUAYAS,8,DE,MINEDUC,SI,-2.19811515737,-79.934944194
09D05,TARQUI,AV DE LAS AMERICAS S N  INTERSECCION AV PLAZA DANIN UBICACION JUNTO AL COLEGIO TECNICO SIMON BOLIVAR,90150,GUAYAQUIL,901,GUAYAQUIL,9,GUAYAS,8,DP,MINEDUC,SI,-2.17213059709,-79.892103774
09D06,BELLAVISTA - MAPASINGUE,AV CARLOS JULIO AROSEMENA TOLA KM 3 5 VIA A DAULE,90150,GUAYAQUIL,901,GUAYAQUIL,9,GUAYAS,8,DE,MINEDUC,SI,-2.17010289619,-79.9188605586
09D07,LOS VERGELES,COOP LOS VERGELES MZ 312 SOLAR 16 A,90150,GUAYAQUIL,901,GUAYAQUIL,9,GUAYAS,8,DE,MINEDUC,SI,-2.09635384797,-79.909183948
09D08,MONTE SINAI,AV CASUARINA LOTIZACION INMACONSA ENTRE CALLES CEDROS Y LAURELES,90150,GUAYAQUIL,901,GUAYAQUIL,9,GUAYAS,8,DE,SENECYT - ZONA DEPORTE,SI,-2.11756376226,-79.9401843521
09D09,CHONGON,BARRIO SAN GERONIMO MZ 449 KM 24 VIA A LA COSTA,90150,GUAYAQUIL,901,GUAYAQUIL,9,GUAYAS,8,DE,MINEDUC,SI,-2.21729521513,-80.0814384279
09D10,GOMEZ RENDON PROGRESO,KM 64 5 VIA A LA COSTA PARROQUIA JUAN GOMEZ RENDON,90152,JUAN GOMEZ RENDON (PROGRESO),901,GUAYAQUIL,9,GUAYAS,8,DE,MINEDUC,,-2.39678248456,-80.3625004781
09D23,SAMBORONDON,BOLIVAR Y 31 DE OCTUBRE,91650,SAMBORONDON,916,SAMBORONDON,9,GUAYAS,8,DE,MINEDUC,,-1.95637888864,-79.7258621874
17D01,NOROCCIDENTE,COLEGIO NANEGALITO PARQUE CENTRAL DE LA PARROQUIA CALLE PICHINCHA Y SUCRE S N,170169,NANEGALITO,1701,QUITO,17,PICHINCHA,9,DE,MINEDUC,,0.06195021748,-78.6831859958
17D02,CALDERON,COLEGIO NICOLAS JIMENEZ CALLE TOBIAS GODOY Y AV GIOVANI CALLES N3173,170155,CALDERON (CARAPUNGO),1701,QUITO,17,PICHINCHA,9,DE,MINEDUC,,-0.08409512842,-78.4232154216
17D03,LA DELICIA,POMASQUI AV MANUEL CORDOVA GALARZA Y MANUELA SAENZ,170177,POMASQUI,1701,QUITO,17,PICHINCHA,9,DE,MINEDUC,,-0.05288343155,-78.458981312
17D04,CENTRO,LUIS VARGAS TORRES Y FELICIANO CHECA,170150,QUITO,1701,QUITO,17,PICHINCHA,9,DE,MINEDUC,SI,-0.21156820064,-78.5040350771
17D05,NORTE,COLEGIO 24 DE MAYO AV MARIA ANGELICA CARRILLO Y AV SEIS DE DICIEMBRE,170150,QUITO,1701,QUITO,17,PICHINCHA,9,DE,SENECYT,SI,-0.17521991337,-78.4759658418
17D06,ELOY ALFARO,COLEGIO JUAN PIO MONTUFAR AV UPANO Y PEDRO DE CEPEDES,170150,QUITO,1701,QUITO,17,PICHINCHA,9,DE,MINEDUC,SI,-0.24074593571,-78.5089411986
17D07,QUITUMBE,0E6 228 OE7 MARTHA BUCARAM PREDIOS DEL COLEGIO ARTURO BORJA,170150,QUITO,1701,QUITO,17,PICHINCHA,9,DE,MINEDUC,SI,-0.30189469208,-78.5640829539
09D24,DURAN,CALLE HUMBERTO AYALA Y VELASCO IBARRA CANTON DURAN JUNTO AL COLEGIO FISCAL DURAN,90750,ELOY ALFARO (DURAN),907,DURAN,9,GUAYAS,8,DE,MINEDUC,,-2.17058508932,-79.8414634071
17D08,LOS CHILLOS,ESCUELA DR LUIS EGUIGUREN AV BENJAMIN CARRION Y SAN JUAN  AMAGUANA,170152,AMAGUAÑA,1701,QUITO,17,PICHINCHA,9,DE,MINEDUC,,-0.37927404303,-78.4947144932
17D09,TUMBACO,COLEGIO EDUARDO SALAZAR GOMEZ A DOS CUADRAS DEL PARQUE CENTRAL DE PIFO CALLE RAFAEL DELGADO Y VIA INTEROCEANICA,170175,PIFO,1701,QUITO,17,PICHINCHA,9,DE,MINEDUC,,-0.22824507487,-78.3436580452
22D01,JOYA DE LOS SACHAS,AV LOS LAURELES Y CALLE S N,220350,LA JOYA DE LOS SACHAS,2203,LA JOYA DE LOS SACHAS,22,ORELLANA,2,DE,MINEDUC,,-0.29255999466,-76.856671764
22D02,ORELLANA - LORETO,AV 9 DE OCTUBRE Y ELOY ALFARO FRENTE AL PARQUE DEL NINO,220150,PUERTO FRANCISCO DE ORELLANA (EL COCA),2201,ORELLANA,22,ORELLANA,2,DP,MINEDUC,SI,-0.47312520247,-76.9850973501
22D03,AGUARICO,SUSANA VEGAY Y JORGE CHAVEZ,220254,TIPUTINI,2202,AGUARICO,22,ORELLANA,2,OT,MINEDUC,,-0.79138858607,-75.5271331547
15D01,TENA - ARCHIDONA - CARLOS JULIO AROSEMENA TOLA,CALLE JUAN MONTALVO N 270 Y ABDON CALDERON,150150,TENA,1501,TENA,15,NAPO,2,DP,OT DEPORTE,SI,-0.98987539491,-77.8168276225
15D02,EL CHACO - QUIJOS,BARRIO UNION AV FRANCISCO DE ORELLANA Y ABDON CALDERON,150450,EL CHACO,1504,EL CHACO,15,NAPO,2,DE,MINEDUC,,-0.33981917688,-77.8104430281
17D10,CAYAMBE - PEDRO MONCAYO,ISLA SEYMUR OE022 Y HUMBERTO FIERRO,170250,CAYAMBE,1702,CAYAMBE,17,PICHINCHA,9,OT,MINEDUC,,0.03492647048,-78.1492436121
17D11,MEJIA - RUMINAHUI,MARQUEZA DE SOLANDA S N Y VICTOR VELASCO,170352,ALOASI,1703,MEJIA,17,PICHINCHA,9,DE,MINEDUC,,-0.51937113514,-78.5846345996
17D12,PUERTO QUITO - PEDRO VICENTE MALDONADO - LOS BANCOS,CALLE ATAHUALPA Y UNIDAD NACIONAL,170950,PUERTO QUITO,1709,PUERTO QUITO,17,PICHINCHA,9,DE,MINEDUC,,0.12345710635,-79.2555007795
12D01,BABAHOYO - BABA - MONTALVO,GENERAL BARAHONA Y MEJIA ESQUINA,120150,BABAHOYO,1201,BABAHOYO,12,LOS RIOS,5,DP,MINEDUC,SI,-1.79998187337,-79.5370741413
12D02,URDANETA - PUEBLO VIEJO,JUSTINO LANDIVAR Y GILBERTO VACA,120650,CATARAMA,1206,URDANETA,12,LOS RIOS,5,DE,MINEDUC,,-1.57585498592,-79.4733433949
12D03,QUEVEDO - MOCACHE,PARROQUIA SAN CAMILO CALLE GUATEMALA Y PANAMA EN LAS INSTALACIONES DE LA ESCUELA UNIDAD POPULAR,120550,QUEVEDO,1205,QUEVEDO,12,LOS RIOS,5,DE,MINEDUC,,-1.02960107134,-79.4591566742
12D04,VENTANAS - QUINSALOMA,AVENIDA SEMINARIO Y 10 DE AGOSTO,120750,VENTANAS,1207,VENTANAS,12,LOS RIOS,5,DE,MINEDUC,,-1.44521970069,-79.4618957486
12D05,VINCES - PALENQUE,UNIDAD EDUCATIVA 10 DE AGOSTO MAYAICU Y MALECON ELOY ALFARO,120850,VINCES,1208,VINCES,12,LOS RIOS,5,DE,MINEDUC,,-1.55262246881,-79.7522637597
12D06,BUENA FE - VALENCIA,AV WALTER ROQUE Y ELA ALAVA,121050,SAN JACINTO DE BUENA FE,1210,BUENA FE,12,LOS RIOS,5,DE,MINEDUC,,-0.90166567513,-79.4917169855
02D01,GUARANDA,CONVENCION DE 1884 E ISIDRO AYORA,20150,GUARANDA,201,GUARANDA,2,BOLIVAR,5,DP,MINEDUC,SI,-1.59826256798,-78.999404493
02D02,CHILLANES,ESCUELA FRAY VICENTE SOLANO  CALLES GUAYAS Y 27 DE ABRIL,20250,CHILLANES,202,CHILLANES,2,BOLIVAR,5,DE,MINEDUC,,-1.9454974851,-79.0643579719
02D03,SAN MIGUEL - CHIMBO,BARRIO 13 DE ABRIL Y AV EL MAESTRO  EX INSTITUTO PEDAGOGICO DE BOLIVAR,20550,SAN MIGUEL,205,SAN MIGUEL,2,BOLIVAR,5,DE,MINEDUC,,-1.70560821719,-79.0470007997
02D04,ECHEANDIA - CALUMA - LAS NAVES,COLEGIO GALO PLAZA LASSO AV 24 DE MAYO Y PATRICIA ALARCON VIA VENTANAS,20450,ECHEANDIA,204,ECHEANDIA,2,BOLIVAR,5,DE,MINEDUC,,-1.43288693679,-79.2843405269
20D01,SAN CRISTOBAL - ISABELA - SANTA CRUZ,AV ALBERTO SPENCER Y RAMON UNAMUNO,200150,PUERTO BAQUERIZO MORENO,2001,SAN CRISTOBAL,20,GALAPAGOS,5,DP,MINEDUC,SI,-0.74091088326,-90.3199406011
24D01,SANTA ELENA,AV FRANCISCO PIZARRO VIA BALLENITA,240150,SANTA ELENA,2401,SANTA ELENA,24,SANTA ELENA,5,DE,MINEDUC,SI,-2.22286181144,-80.8593962364
24D02,LA LIBERTAD - SALINAS,LA LIBERTAD CALLE 10 ENTRE AV 5 Y 7 JUNTO AL COLEGIO DR LUIS AVILES,240250,LA LIBERTAD,2402,LA LIBERTAD,24,SANTA ELENA,5,DP,MINEDUC,,-2.22331280697,-80.9193696792
09D11,SIMON BOLIVAR - ALFREDO BAQUERIZO MORENO,AV MONSENOR CARLOS BRAVO Y CALLE SIN NUMERO FRENTE AL CEMENTERIO CANTON SIMON BOLIVAR,92250,SIMON BOLIVAR,922,SIMON BOLIVAR,9,GUAYAS,5,DE,MINEDUC,,-2.00006108207,-79.4794310715
09D12,NARANJAL - BALAO,JUAN LARREATEGUI ENTRE MONSENOR GILBERTO GUZMANY RENE MENESES CAMPOS,91150,NARANJAL,911,NARANJAL,9,GUAYAS,5,DE,MINEDUC,,-2.67736029586,-79.6138555033
09D13,BALZAR - COLIMES - PALESTINA,EX COLEGIO FELIX CHANKUON CALLE ADAN ENTRE AYACUCHO Y LUCAS TRIVINO,90450,BALZAR,904,BALZAR,9,GUAYAS,5,DE,MINEDUC,,-1.3689400259,-79.907474732
09D14,PEDRO CARBO - ISIDRO AYORA - LOMAS DE SARGENTILLO,COLEGIO EDUARDO GRANJA GARCES AVENIDA AZUAY SOLAR 07 ENTRE ARGENTINA Y CHILE,91450,PEDRO CARBO,914,PEDRO CARBO,9,GUAYAS,5,DE,MINEDUC,,-1.81313089765,-80.2332196517
09D15,EMPALME,COLEGIO SOLDADO MONGE VIA GUAYAQUIL KM 1 SECTOR LA CHIQUITA,90850,VELASCO IBARRA (CAB. EL EMPALME),908,EMPALME,9,GUAYAS,5,DE,MINEDUC,,-1.05901282916,-79.6413979062
09D16,EL TRIUNFO - GRAL ANTONIO ELIZALDE,AV NUEVE DE OCTUBRE Y JAIME ROLDOS,90950,EL TRIUNFO,909,EL TRIUNFO,9,GUAYAS,5,DE,MINEDUC,,-2.33356569701,-79.4024095445
09D17,MILAGRO,CALLE GUAYAQUIL Y ERNESTO SEMINARIO,91050,MILAGRO,910,MILAGRO,9,GUAYAS,5,DE,MINEDUC,,-2.12383746726,-79.5958015361
09D18,NARANJITO - CRNEL MARCELINO MARIDUENA,CALLE DOLORES ALZUA Y 10 DE AGOSTO ESQUINA ANTIGUA INSTITUCION HUGO SUAREZ ESQUINERO,91250,NARANJITO,912,NARANJITO,9,GUAYAS,5,DE,MINEDUC,,-2.1691489673,-79.4654533073
09D19,DAULE - NOBOL - SANTA LUCIA,COLEGIO JUAN BAUTISTA AGUIRRE AV LAS MARAVILLAS 101 Y LOS DAULIS,90650,DAULE,906,DAULE,9,GUAYAS,5,DE,MINEDUC,,-1.8666616118,-79.9772549317
09D20,SALITRE,UNIDAD EDUCATIVA RAFAEL SOTOMAYOR Y LUNA AV CARLOS ARMANDO ROMERO RODAS Y 5 DE NOVIEMBRE UNIDAD EDUCATIVA RAFAEL SOTOMAYOR Y LUNA,91950,EL SALITRE (LAS RAMAS),919,SALITRE,9,GUAYAS,5,DE,MINEDUC,,-1.82695186191,-79.8186695674
09D21,SAN JACINTO DE YAGUACHI,COLEGIO 21 DE JULIO CALLE ABDON CALDERON Y MARCELINO MARIDUENA,92050,SAN JACINTO DE YAGUACHI,920,SAN JACINTO DE YAGUACHI,9,GUAYAS,5,DE,MINEDUC,,-2.09888336539,-79.6945318234
09D22,PLAYAS,CIUDADELA TORBAY KM 1 1 2 VIA AL MORRO,92150,GENERAL VILLAMIL (PLAYAS),921,PLAYAS,9,GUAYAS,5,DE,MINEDUC,,-2.63709968523,-80.3809548195
13D01,PORTOVIEJO,SUCRE Y FRANCISCO PACHECO,130150,PORTOVIEJO,1301,PORTOVIEJO,13,MANABI,4,DE,SENECYT - ZONA DEPORTE,SI,-1.05919983879,-80.4535689673
13D02,MANTA - JARAMIJO - MONTECRISTI,CALLE 20 ENTRE AVENIDA 25 Y 26,130850,MANTA,1308,MANTA,13,MANABI,4,DP,MINEDUC,,-0.94666111131,-80.7348113723
13D03,JIPIJAPA - PUERTO LOPEZ,GUAYAS Y ROCAFUERTE ESQUINA,130650,JIPIJAPA,1306,JIPIJAPA,13,MANABI,4,DE,MINEDUC,,-1.35032407356,-80.5807900735
13D04,SANTA ANA - 24 DE MAYO - OLMEDO,CALLE HORACIO HIDROVO Y AV LUIS ALBERTO GILER COLEGIO NACIONAL HORACIO HIDROVO VELASQUEZ,131350,SANTA ANA DE VUELTA LARGA,1313,SANTA ANA,13,MANABI,4,DE,MINEDUC,,-1.20665089407,-80.3747444641
13D05,EL CARMEN,AVENIDA CHONE ENTRE VICENTE ROCAFUERTE Y CARLOS ALBERTO ARAY FRENTE AL PARQUE CENTRAL,130450,EL CARMEN,1304,EL CARMEN,13,MANABI,4,DE,MINEDUC,,-0.27224319267,-79.4614555763
13D06,BOLIVAR - JUNIN,AV HUMBERTO GONZALEZ ALAVA VIA CALCETA TOSAGUA KM 1 2 ENTRADA AL CAMAL COLEGIO NACIONAL NOCTURNO SIMON BOLIVAR,130250,CALCETA,1302,BOLIVAR,13,MANABI,4,DE,MINEDUC,,-0.84330091949,-80.1705305161
13D07,CHONE - FLAVIO ALFARO,BARRIO SAN FELIPE CALLE TARQUI Y BOYACA JUNTO AL ALBERGUE SEGURO CAMPESINO,130350,CHONE,1303,CHONE,13,MANABI,4,DE,MINEDUC,,-0.6911973634,-80.095859871
13D08,PICHINCHA,VIA MANTA QUEVEDO BARRIO BELLAVISTA CIUDADELA SAN PABLO A LADO DEL COLEGIO NACIONAL PICHINCHA,131150,PICHINCHA,1311,PICHINCHA,13,MANABI,4,DE,MINEDUC,,-1.04494000273,-79.8212769943
13D09,PAJAN,MANUEL LORENZO NIETO  24 DE MAYO ESQ,131050,PAJAN,1310,PAJAN,13,MANABI,4,DE,MINEDUC,,-1.54995005175,-80.4307087308
13D10,PEDERNALES - JAMA,AV 27 DE NOVIEMBRE Y SIMON PALACIOS,131750,PEDERNALES,1317,PEDERNALES,13,MANABI,4,DE,MINEDUC,,0.0652402927,-80.0550590558
13D11,SUCRE - SAN VICENTE,CALLE MARANON 200 ENTREE DR OCTAVIO VITERI Y SALINAS,131450,BAHIA DE CARAQUEZ,1314,SUCRE,13,MANABI,4,DE,MINEDUC,,-0.59871138471,-80.4229394657
13D12,TOSAGUA - ROCAFUERTE,CALLE ABDON BERMUDEZ ENTRE 5 DE MAYO Y 3 DE OCTUBRE,131550,TOSAGUA,1315,TOSAGUA,13,MANABI,4,DE,MINEDUC,,-0.7887545712,-80.2329139857
23D01,STO DOMINGO DE LOS TSACHILAS 1,CALLE RIO CHIMBO Y BALZAPAMBA DIAGONAL COLEGIO TECNICO JULIO MORENO ESPINOZA,230150,SANTO DOMINGO DE LOS COLORADOS,2301,SANTO DOMINGO,23,SANTO DOMINGO DE LOS TSACHILAS,4,DP,MINEDUC,SI,-0.25340110393,-79.1627672331
23D02,STO DOMINGO DE LOS TSACHILAS 2,AV ESMERALDAS Y RIO PASTAZA  FRENTE A SUPER EXITO,230150,SANTO DOMINGO DE LOS COLORADOS,2301,SANTO DOMINGO,23,SANTO DOMINGO DE LOS TSACHILAS,4,DE,MINEDUC,SI,-0.24497243014,-79.1736549244
23D03,LA CONCORDIA,VIA AL BLANCO BY PASS PTO QUITO,230250,LA CONCORDIA,2302,LA CONCORDIA,23,SANTO DOMINGO DE LOS TSACHILAS,4,DE,MINEDUC,,0.01230444521,-79.3775875024
16D01,PASTAZA - MERA - SANTA CLARA,AVENIDA MONSENOR ALBERTO ZAMBRANO PALACIOS BARRIO EL PARAISO,160150,PUYO,1601,PASTAZA,16,PASTAZA,3,DP,MINEDUC,SI,-1.49083815122,-78.0090088663
16D02,ARAJUNO,ARAJUNO CALLE JUAN AGUINDA VIA A GUANO INSTALACIONES DE RED AMAZONICA,160450,ARAJUNO,1604,ARAJUNO,16,PASTAZA,3,OT,MINEDUC,,-1.23112924477,-77.6887533947
05D01,LATACUNGA,ANTONIA VELA 580 Y GUAYAQUIL,50150,LATACUNGA,501,LATACUNGA,5,COTOPAXI,3,DP,MINEDUC,SI,-0.93339080524,-78.6186257059
05D02,LA MANA,AV AMAZONAS ENTRE MIGUEL ITURRALDE Y HEROES DEL CENEPA,50250,LA MANA,502,LA MANA,5,COTOPAXI,3,DE,MINEDUC,,-0.94300289301,-79.2358278067
05D03,PANGUA,AV GRAL ENRIQUEZ GALLO S N Y SUCRE,50350,EL CORAZON,503,PANGUA,5,COTOPAXI,3,DE,MINEDUC,,-1.13562818324,-79.0822590855
05D04,PUJILI - SAQUISILI,AVENIDA GABRIEL ALVAREZ S N Y TEOFILO SEGOVIA,50450,PUJILI,504,PUJILI,5,COTOPAXI,3,OT,MINEDUC,,-0.95229083543,-78.6984930586
05D05,SIGCHOS,CALLE TUNGURAHUA Y JUAN SALAS TIVELSA,50750,SIGCHOS,507,SIGCHOS,5,COTOPAXI,3,OT,MINEDUC,,-0.70548903743,-78.8906549014
05D06,SALCEDO,BARRIO LA PALMIRA CALLE BELISARIO QUEVEDO Y CIRCUNVALACION,50550,SAN MIGUEL,505,SALCEDO,5,COTOPAXI,3,DE,MINEDUC,,-1.04019848922,-78.5835603292
18D01,AMBATO 1,CALLE LALAMA Y BOLIVAR,180150,AMBATO,1801,AMBATO,18,TUNGURAHUA,3,DP,SENECYT - OT DEPORTE,SI,-1.2403181548,-78.6275925398
18D02,AMBATO 2,EDIFICIO DE LA PROCESADORA DE LECHE DEL ITAS LUIS A MARTINEZ  UBICADO EN LA AVDA RUMINAHUI Y PICHINCHA,180150,AMBATO,1801,AMBATO,18,TUNGURAHUA,3,DE,MINEDUC,SI,-1.25177306999,-78.6252197123
18D03,BANOS DE AGUA SANTA,PEDRO VICENTE MALDONADO ENTRE AMBATO Y ORIENTE,180250,BAÑOS DE AGUA SANTA,1802,BAÑOS DE AGUA SANTA,18,TUNGURAHUA,3,DE,MINEDUC,,-1.39704208278,-78.4236079671
18D04,PELILEO - PATATE,22 DE JULIO 323 Y ZOPOZOPANQUI,180750,PELILEO,1807,SAN PEDRO DE PELILEO,18,TUNGURAHUA,3,DE,MINEDUC,,-1.33182429002,-78.5437806553
18D05,PILLARO,PARROQUIA SAN MIGUELITO CALLE LAS FRESAS Y LOS ARRAYANES,180857,SAN MIGUELITO,1808,SANTIAGO DE PILLARO,18,TUNGURAHUA,3,DE,MINEDUC,,-1.20395145194,-78.5404709976
18D06,QUERO - CEVALLOS - MOCHA - TISALEO,JUAN BENIGNO VELA Y MARIANO BENITEZ,180650,QUERO,1806,QUERO,18,TUNGURAHUA,3,DE,MINEDUC,,-1.38060428333,-78.6065534601
06D01,RIOBAMBA - CHAMBO,CANONIGO RAMOS Y AUGUSTO TORRES,60150,RIOBAMBA,601,RIOBAMBA,6,CHIMBORAZO,3,DP,MINEDUC,SI,-1.65955345922,-78.6653696457
06D02,CHUNCHI - ALAUSI,MANUEL REYES Y QUITO,60550,CHUNCHI,605,CHUNCHI,6,CHIMBORAZO,3,DE,MINEDUC,,-2.29207228377,-78.9211862204
06D03,PALLATANGA - CUMANDA,CALLE PADRE RODOLFO ROMERO VIA A JIMENEZ,60850,PALLATANGA,608,PALLATANGA,6,CHIMBORAZO,3,DE,MINEDUC,,-1.99320969928,-78.9649985449
06D04,COLTA - GUAMOTE,AV UNIDAD NACIONAL Y AV DEL MAESTRO COLEGIO TOMAS OLEAS,60350,VILLA LA UNION (CAJABAMBA),603,COLTA,6,CHIMBORAZO,3,OT,MINEDUC,,-1.70114555017,-78.7697939192
06D05,GUANO - PENIPE,AVDA 20 DE DICIEMBRE S N Y THOMAS RAMIREZ,60750,GUANO,607,GUANO,6,CHIMBORAZO,3,DE,MINEDUC,,-1.60794592955,-78.6435484928
19D01,ZAMORA - YACUAMBI,CALLE JOSE LUIS TAMAYO Y GARCIA MORENO  COLEGIO SAN FRANCISCO,190150,ZAMORA,1901,ZAMORA,19,ZAMORA CHINCHIPE,7,DP,MINEDUC,SI,-4.06814070733,-78.9578108471
19D02,NANGARITZA - CENTINELA DEL CONDOR - PAQUISHA,AV JORGE MOSQUERA Y HEROES DE PAQUISHA,190350,GUAYZIMI,1903,NANGARITZA,19,ZAMORA CHINCHIPE,7,DE,MINEDUC,,-4.04880779506,-78.6811176014
19D03,PALANDA - CHINCHIPE,PALANDA AV DEL MAESTRO Y CALLE SAN JUAN BAUTISTA S N JUNTO AL COLEGIO ORIENTE ECUATORIANO,190850,PALANDA,1908,PALANDA,19,ZAMORA CHINCHIPE,7,DE,MINEDUC,,-4.65157032791,-79.1319730572
19D04,YANTZAZA - EL PANGUI,CALLE 13 DE ABRIL Y VELASCO IBARRA,190550,YANTZAZA (YANZATZA),1905,YANTZAZA,19,ZAMORA CHINCHIPE,7,DE,MINEDUC,,-3.82605864484,-78.7577799818
07D01,PASAJE - CHILLA - EL GUABO,JOSE ORAMAS Y JOSE ZAMORA ENTRE CARLOS FALQUEZ Y JOSE RAMON VALLEJO,70950,PASAJE,709,PASAJE,7,EL ORO,7,DE,MINEDUC,,-3.32773333782,-79.7935578439
07D02,MACHALA,CALLE AUGUSTO VALLE ROSALES Y RAQUEL UGARTE DE CEVALLOS DENTRO DE LA URB UNIORO,70150,MACHALA,701,MACHALA,7,EL ORO,7,DP,MINEDUC,SI,-3.26550122577,-79.9414753353
07D03,ZARUMA - PORTOVELO - ATAHUALPA,AVDA EL SESMO  JUNTO A LA EEB GABRIELA MISTRAL,71350,ZARUMA,713,ZARUMA,7,EL ORO,7,DE,MINEDUC,,-3.69072235164,-79.6142415721
07D04,BALSAS - MARCABELI - PINAS,CALLE 13 DE NOVIEMBRE ENTRE 24 DE MAYO Y TEODORA LOAIZA,70450,BALSAS,704,BALSAS,7,EL ORO,7,DE,MINEDUC,,-3.76090654182,-79.8241923031
07D05,ARENILLAS - LAS LAJAS - HUAQUILLAS,AV RAUL FRIAS INTERCECCION VENEZUELA Y JAIME ROLDOS  A LADO DEL COLEGIO TECNICO ARRENILLAS,70250,ARENILLAS,702,ARENILLAS,7,EL ORO,7,DE,MINEDUC,,-3.55589761379,-80.0692598123
07D06,SANTA ROSA,CIUDADELA 10 DE AGOSTO CALLE FRANCO ROMERO LOAYZA Y MARIO MARTINEZ,71250,SANTA ROSA,712,SANTA ROSA,7,EL ORO,7,DE,MINEDUC,,-3.45565481153,-79.9567552008
11D01,LOJA,CALLE CATAMAYO ENTRE ALISOS Y CEDROS,110150,LOJA,1101,LOJA,11,LOJA,7,DP,SENECYT - ZONA DEPORTE,SI,-4.0115713513,-79.1970273879
11D02,CATAMAYO - CHAGUARPAMBA - OLMEDO,10 DE AGOSTO Y ATAHUALPA,110350,CATAMAYO (LA TOMA),1103,CATAMAYO,11,LOJA,7,DE,MINEDUC,,-3.98559110238,-79.3533815501
11D03,PALTAS,AVENIDA NAUN BRIONES Y JUAN BENIGNO VELA DETRAS DE LA UNIDAD EDUCATIVA FISCOMISIONAL MARISTA DE CATACOCHA,110950,CATACOCHA,1109,PALTAS,11,LOJA,7,DE,MINEDUC,,-4.05189834642,-79.646975045
11D04,CELICA - PINDAL - PUYANGO,CALLE COLON VIA A GUACHANAMA,110450,CELICA,1104,CELICA,11,LOJA,7,DE,MINEDUC,,-4.10532710418,-79.9535973199
11D05,ESPINDOLA,CALLE SIMON BOLIVAR JUNTO A CNT,110650,AMALUZA,1106,ESPINDOLA,11,LOJA,7,DE,MINEDUC,,-4.58315390487,-79.4277802877
11D06,GONZANAMA - CALVAS - QUILANGA,10 DE AGOSTO Y ATAHUALPA,110750,GONZANAMA,1107,GONZANAMA,11,LOJA,7,DE,MINEDUC,,-4.23187172566,-79.43778583
11D07,MACARA - SOZORANGA,10 DE AGOSTO ENTRE CAMILO PONCE Y EMILIANO CORREA,110850,MACARA,1108,MACARA,11,LOJA,7,DE,MINEDUC,,-4.37862858276,-79.9432611746
11D08,SARAGURO,CALLE AZUAY Y LUIS FELIPE ORTEGA,111150,SARAGURO,1111,SARAGURO,11,LOJA,7,OT,MINEDUC,,-3.62245479475,-79.2362645258
11D09,ZAPOTILLO,BARRIO AMAZONAS VIA QUE CONDUCE AL HOSPITAL DE LA CIUDAD,111350,ZAPOTILLO,1113,ZAPOTILLO,11,LOJA,7,DE,MINEDUC,,-4.38346905614,-80.2423675263
04D01,TULCAN - SAN PEDRO DE HUACA,BARRIO CENTRAL 10 DE AGOSTO Y COLON ESQUINA,40150,TULCAN,401,TULCAN,4,CARCHI,1,DP,MINEDUC,SI,0.81154315014,-77.7171242574
04D02,MONTUFAR - BOLIVAR,BARRIO SANTA ROSA CALLE MANUEL J BASTIDAS FRENTE AL COLEGIO JORGE,40550,SAN GABRIEL,405,MONTUFAR,4,CARCHI,1,DE,MINEDUC,,0.59898433268,-77.8231529735
04D03,MIRA - ESPEJO,AV LEON RUALES 10 081 Y Y CALLE ULPIANO PALACIOS,40450,MIRA (CHONTAHUASI),404,MIRA,4,CARCHI,1,DE,MINEDUC,,0.5504026627,-78.0387071459
08D01,ESMERALDAS,CALLE SUCRE ENTRE JUAN MONTALVO Y ROCAFUERTE,80150,ESMERALDAS,801,ESMERALDAS,8,ESMERALDAS,1,DP,ZONA DEPORTE,SI,0.96832586162,-79.653285248
08D02,ELOY ALFARO,CALLE ARTESANAL Y NUEVA ESPERANZA DIAGONAL A LA SUBESTACION CNEL UNIDAD EDUCATIVA BORBON,80253,BORBON,802,ELOY ALFARO,8,ESMERALDAS,1,OT,MINEDUC,,1.09125074439,-78.9884238777
08D03,ATACAMES - MUISNE,VIA PRINCIPAL SUA COLEGIO ATACAMES,80650,ATACAMES,806,ATACAMES,8,ESMERALDAS,1,DE,MINEDUC,,0.86688718004,-79.8554597298
08D04,QUININDE,VIA SANTO DOMINGO KM1 BARRIO TELEMBI,80450,ROSA ZARATE (QUININDE),804,QUININDE,8,ESMERALDAS,1,DE,MINEDUC,,0.315928685,-79.4689829131
08D05,SAN LORENZO,CALLE ROBERTO LUIS CERVANTES Y 22 DE MARZO,80550,SAN LORENZO,805,SAN LORENZO,8,ESMERALDAS,1,DE,MINEDUC,,1.28367315128,-78.8317474545
08D06,RIO VERDE,COLEGIO BACHILLERATO RIO VERDE BARRIO LOS ALMENDROS CALLE PRINCIPAL FRENTE AL COMPLEJO DE ALTO RENDIMIENTO,80750,RIOVERDE,807,RIOVERDE,8,ESMERALDAS,1,DE,MINEDUC,,1.0714250366,-79.4096276764
10D01,IBARRA - PIMAMPIRO - URCUQUI,LUIS JARAMILLO PEREZ 4 133 Y BARTOLOME DE LAS CASAS BARRIO PILANQUI 2DA ETAPA,100150,SAN MIGUEL DE IBARRA,1001,IBARRA,10,IMBABURA,1,DP,SENECYT,SI,0.34353683261,-78.1307160344
10D02,OTAVALO - ANTONIO ANTE,JUAN DE ALBARRACIN Y PANAMERICANA NORTE,100450,OTAVALO,1004,OTAVALO,10,IMBABURA,1,OT,MINEDUC,,0.22432367452,-78.2637174897
10D03,COTACACHI,BOLIVAR 1945 QUIROGA U E LUIS ULPIANO DE LA TORRE,100350,COTACACHI,1003,COTACACHI,10,IMBABURA,1,DE,MINEDUC,,0.3023943372,-78.2623539706
21D01,CASCALES - GONZALO PIZARRO - SUCUMBIOS,NAPO Y GARCIA MORENO,210650,EL DORADO DE CASCALES,2106,CASCALES,21,SUCUMBIOS,1,DE,MINEDUC,,0.07634715893,-77.2136291596
21D02,LAGO AGRIO,VIA QUITO KM 4 1 2 ENTRADA A LA OCP,210150,NUEVA LOJA,2101,LAGO AGRIO,21,SUCUMBIOS,1,DP,MINEDUC,SI,0.08509742454,-76.8940161908
21D03,CUYABENO - PUTUMAYO,AV PABLO RUBEN CEVALLOS Y EDGAR ZAMBRANO DIAGONAL AL MUNICIPIO DE CUYABENO BARRIO LAS COLINAS,210750,TARAPOA,2107,CUYABENO,21,SUCUMBIOS,1,DE,MINEDUC,,-0.12634713283,-76.3402625596
21D04,SHUSHUFINDI,BRASIL Y SHUARAS BARRIO EL CISNE TRAS LA ESCUELA FRANCISCO JAVIER PENARRETA,210450,SHUSHUFINDI,2104,SHUSHUFINDI,21,SUCUMBIOS,1,DE,MINEDUC,,-0.18456525071,-76.6401568544
01D01,CUENCA 1,HUAYNA CAPAC Y CALLE LARGA 113 EDIFICIO BANCO CENRAL TERCER PISO,10150,CUENCA,101,CUENCA,1,AZUAY,6,DE,MINEDUC,SI,-2.90597848064,-78.9973010696
01D02,CUENCA 2,GUAYACAN Y AV ORDONEZ LASSO,10150,CUENCA,101,CUENCA,1,AZUAY,6,DP,SENECYT - ZONA DEPORTE,SI,-2.89005327848,-79.0266088231
01D03,SANTA ISABEL - GIRON - PUCARA - SAN FERNANDO,CALLE MANABI Y FIDEL ROSALES EDIFICIO COLEGIO MENSAJEROS DE LA PAZ,10850,SANTA ISABEL (CHAGUARURCO),108,SANTA ISABEL,1,AZUAY,6,DE,MINEDUC,,-3.27597028765,-79.3143607836
01D04,GUALACEO - CHORDELEG,PROLONGACION DE LA GRAN COLOMBIA Y MARIETA VAZQUEZ,10350,GUALACEO,103,GUALACEO,1,AZUAY,6,DE,MINEDUC,,-2.88621495161,-78.7784985416
01D05,NABON - ONA,PANAMERICA SUR SECTOR LA PAZ JUNTO A LA IGLESIA,10453,LAS NIEVES (CHAYA),104,NABON,1,AZUAY,6,DE,MINEDUC,,-3.32097820982,-79.1607944029
01D06,PAUTE - EL PAN - GUACHAPALA - SEVILLA DE ORO,CALLES NICOLAZ VASQUEZ N 4 01 INTERSECCION SIGLO XX Y HUAYNACAPAC,10550,PAUTE,105,PAUTE,1,AZUAY,6,DE,MINEDUC,,-2.78096841403,-78.7599197599
01D07,CAMILO PONCE ENRIQUEZ,ELOY BARROS ENTRE JUAN MALDONADO Y MANANTHIAL,11550,CAMILO PONCE ENRIQUEZ,115,CAMILO PONCE ENRIQUEZ,1,AZUAY,6,DE,MINEDUC,,-3.0636662894,-79.745440711
01D08,SIGSIG,AV KENNEDY,10950,SIGSIG,109,SIGSIG,1,AZUAY,6,DE,MINEDUC,,-3.04957414454,-78.7970268651
03D01,AZOGUES - BIBLIAN - DELEG,LUIS CORDERO Y BENIGNO SOLANO,30150,AZOGUES,301,AZOGUES,3,CAÑAR,6,DP,MINEDUC,SI,-2.73930074368,-78.8487938664
03D02,CANAR - EL TAMBO - SUSCAL,CALLE JAVIERA NIETO Y AV 24 DE MAYO,30350,CAÑAR,303,CAÑAR,3,CAÑAR,6,OT,MINEDUC,,-2.55554332133,-78.939195076
03D03,LA TRONCAL,CALLE 4 DE NOVIEMBRE Y LOJA,30450,LA TRONCAL,304,LA TRONCAL,3,CAÑAR,6,DE,MINEDUC,,-2.42280323053,-79.3342217713
14D01,MORONA,24 DE MAYO ENTRE MARISCAL SUCRE Y SIMON BOLIVAR,140150,MACAS,1401,MORONA,14,MORONA SANTIAGO,6,DP,MINEDUC,SI,-2.3038371806,-78.1176285066
14D02,HUAMBOYA - PABLO SEXTO,AV 3 DE NOVIEMBRE Y EUGENIO ESPEJO FRETE A LA IGLESIA CENTRAL,140750,HUAMBOYA,1407,HUAMBOYA,14,MORONA SANTIAGO,6,DE,MINEDUC,,-1.94423690439,-77.9944486466
14D03,SUCUA - LOGRONO,SOR MARIA TRONCATTI Y AVENIDA CARLOS JULIO AROSEMENA,140650,SUCUA,1406,SUCUA,14,MORONA SANTIAGO,6,OT,MINEDUC,,-2.45246176977,-78.1708448163
14D04,GUALAQUIZA - SAN JUAN BOSCO,CALLE CUENCA ENTRE LA 24 DE MAYO Y 16 DE AGOSTO,140250,GUALAQUIZA,1402,GUALAQUIZA,14,MORONA SANTIAGO,6,DE,MINEDUC,,-3.40044013885,-78.5807501256
14D05,TAISHA,AV SHAKAIM Y ETSA AL FRENTE COLISEO MUNICIPAL 28 DE JUNIO,140950,TAISHA,1409,TAISHA,14,MORONA SANTIAGO,6,OT,MINEDUC,,-2.38142489293,-77.5064851835
14D06,LIMON INDANZA - SANTIAGO - TIWINTZA,CALLE 28 DE MAYO E ISAAC ORELLANA,140350,GRAL. LEONIDAS PLAZA GUTIERREZ,1403,LIMON INDANZA,14,MORONA SANTIAGO,6,OT,MINEDUC,,-2.96715591961,-78.4325510302
,,,130150,PORTOVIEJO,1301,PORTOVIEJO,13,MANABI,4,DZ,MINEDUC,SI,-1.03188996298,-80.4636013682
,,,110150,LOJA,1101,LOJA,7,LOJA,7,DZ,MINEDUC,SI,-3.99947182983,-79.2000376592
,,,90150,GUAYAQUIL,901,GUAYAQUIL,9,GUAYAS,8,DZ,MINEDUC,SI,-2.16865404798,-79.9002330656
,,,170150,QUITO,1701,QUITO,17,PICHINCHA,9,DZ,MINEDUC,SI,-0.18100605919,-78.4868374759
